[
	{
		"id": "0",
		"coords": {
			"latitude": "13.0827",
			"longitude": "80.2707"
		},
		"window": {
			"title": "Chennai",
			"City": "Chennai",
			"Code": "101",
			"Count": "5",
			"PASSENGER_FIRST_NAME": "john",
			"PNR": "2002323",
			"MOBILE_NUMBER": "9494908515",
			"SERVICE_LOC": "AGRA",
			"Trip": "Holidays1"
		}
	},
	{
		"id": "1",
		"coords": {
			"latitude": "17.3850",
			"longitude": "78.4867"
		},
		"window": {
			"title": "Hyderabad",
			"City": "Hyderabad",
			"Code": "102",
			"Count": "9",
			"PASSENGER_FIRST_NAME": "Mike",
			"PNR": "2002424",
			"MOBILE_NUMBER": "9494908515",
			"SERVICE_LOC": "AHMEDABAD",
			"Trip": "Holidays2"
		}
	},
	{
		"id": "2",
		"coords": {
			"latitude": "25.4358",
			"longitude": "81.8463"
		},
		"window": {
			"City": "ALLAHABAD",
			"Code": "103",
			"Count": "15",
			"PASSENGER_FIRST_NAME": "Fardo",
			"PNR": "2002525",
			"MOBILE_NUMBER": "7458745896",
			"SERVICE_LOC": "ALLAHABAD",
			"Trip": "Holidays3"
		}
	},
	{
		"id": "3",
		"coords": {
			"latitude": "23.1355",
			"longitude": "83.1818"
		},
		"window": {
			"title": "AMBIKAPUR",
			"City": "AMBIKAPUR",
			"Code": "102",
			"Count": "5",
			"PASSENGER_FIRST_NAME": "jenine",
			"PNR": "2002727",
			"MOBILE_NUMBER": "8106594721",
			"SERVICE_LOC": "ASSAM",
			"Trip": "Holidays5"
		}
	},
	{
		"id": "4",
		"coords": {
			"latitude": "36.778259",
			"longitude": "-119.417931"
		},
		"window": {
			"title": "USA",
			"City": "USA",
			"Code": "107",
			"Count": "5",
			"PASSENGER_FIRST_NAME": "Princo",
			"PNR": "4567589",
			"MOBILE_NUMBER": "9494908515",
			"SERVICE_LOC": "USA",
			"Trip": "Holidays1"
		}
	},
{
		"id": "5",
		"coords": {
			"latitude": "-20.917574",
			"longitude": "142.702789"
		},
		"window": {
			"title": "Australia",
			"City": "Australia",
			"Code": "101",
			"Count": "5",
			"PASSENGER_FIRST_NAME": "burgeri",
			"PNR": "2523577",
			"MOBILE_NUMBER": "9768565463",
			"SERVICE_LOC": "Australia",
			"Trip": "Holidays1"
		}
	},
	{
		"coords": {
			"latitude": "60.317199707",
			"longitude": "24.963300705"
		},
		"window": {
			"PASSENGER_FIRST_NAME": "ABHIRAMMR",
			"PNR": "5B8QHT",
			"ORIGIN": "DEL",
			"DESTINATION": "HEL",
			"DOC_SEQ_NO": "797"
		}
	},{
		"coords": {
			"latitude": "57.6627998352",
			"longitude": "12.279800415"
		},
		"window": {
			"PASSENGER_FIRST_NAME": "ABHIRAMMR",
			"PNR": "5B8QHT",
			"ORIGIN": "HEL",
			"DESTINATION": "GOT",
			"DOC_SEQ_NO": "797"
		}
	},{
		"coords": {
			"latitude": "60.317199707",
			"longitude": "24.963300705"
		},
		"window": {
			"PASSENGER_FIRST_NAME": "ABHIRAMMR",
			"PNR": "5B8QHT",
			"ORIGIN": "GOT",
			"DESTINATION": "HEL",
			"DOC_SEQ_NO": "797"
		}
	},{
		"coords": {
			"latitude": "51.4706001282",
			"longitude": "-0.4619410038"
		},
		"window": {
			"PASSENGER_FIRST_NAME": "CHANDRAMDEVMR",
			"PNR": "3M6UFN",
			"ORIGIN": "HYD",
			"DESTINATION": "LHR",
			"DOC_SEQ_NO": "800"
		}
	}]